[{"name": "Micromania PARIS (Ternes)",
  "address": "1 ave Niel",
  "zipcode": "75017",
  "city": "PARIS (Ternes)",
  "coords": {"lon": 2.294205, "lat": 48.878664}},
 {"name": "Micromania MONTPARNASSE Rue de Rennes",
  "address": "126. Rue de Rennes",
  "zipcode": "75006",
  "city": "Paris",
  "coords": {"lon": 2.326222, "lat": 48.846652}},
 {"name": "Micromania PARIS VAUGIRARD",
  "address": "365. Rue de Vaugirard",
  "zipcode": "75015",
  "city": "Paris",
  "coords": {"lon": 2.284926, "lat": 48.847074}},
 {"name": "Micromania BEAUGRENELLE",
  "address": "Centre commercial BEAUGRENELLE",
  "zipcode": "75015",
  "city": "Paris",
  "coords": {"lon": 2.282003, "lat": 48.848649}},
 {"name": "Micromania GARE DU NORD",
  "address": "Gare du Nord Mezzanine Banlieu local 9",
  "zipcode": "75010",
  "city": "Paris",
  "coords": {"lon": 2.355126, "lat": 48.880763}},
 {"name": "Micromania GARE MONTPARNASSE",
  "address": "Gare Paris Montparnasse",
  "zipcode": "75015",
  "city": "Paris",
  "coords": {"lon": 2.320332, "lat": 48.841368}},
 {"name": "Micromania LES HALLES",
  "address": "210 Porte Lescot",
  "zipcode": "75001",
  "city": "Paris",
  "coords": {"lon": 2.347979, "lat": 48.861067}},
 {"name": "Micromania PARIS GENERAL LECLERC",
  "address": "24 Avenue du General Leclerc",
  "zipcode": "75014",
  "city": "Paris",
  "coords": {"lon": 2.330258, "lat": 48.832106}},
 {"name": "Micromania PARIS VICTOR HUGO",
  "address": "137 Avenue Victor Hugo",
  "zipcode": "75116",
  "city": "Paris",
  "coords": {"lon": 2.280261, "lat": 48.867417}},
 {"name": "Micromania CAUMARTIN",
  "address": "64 rue Caumartin",
  "zipcode": "75009",
  "city": "Paris",
  "coords": {"lon": 2.328493, "lat": 48.875316}},
 {"name": "Micromania INNOCENTS",
  "address": "2. Rue Pierre Lescot",
  "zipcode": "75001",
  "city": "Paris",
  "coords": {"lon": 2.34793, "lat": 48.861167}},
 {"name": "Micromania GARE SAINT LAZARE",
  "address": "Gare Saint Lazare",
  "zipcode": "75008",
  "city": "Paris",
  "coords": {"lon": 2.326642, "lat": 48.87641}},
 {"name": "Micromania PARIS SAINT ANTOINE",
  "address": "3 bis rue du Faubourg St Antoine",
  "zipcode": "75011",
  "city": "Paris",
  "coords": {"lon": 2.370634, "lat": 48.853244}}]
